[{"date": "2020/03/17", "node": [{"node_id": 0, "place_name": "イタリア_", "place_label": "", "patients": ["8-1", "8-9"], "longitude": 12.56738, "latitude": 41.87194}, {"node_id": 1, "place_name": "ひたちなか市_8-1自宅", "place_label": "8-1自宅", "patients": ["8-1"], "longitude": 140.5347934, "latitude": 36.39665060000001}, {"node_id": 2, "place_name": "茨城県ひたちなか市_日立製作所水戸事業所", "place_label": "日立製作所水戸事業所", "patients": ["8-1"], "longitude": 140.5347934, "latitude": 36.39665060000001}], "edge": []}, {"date": "2020/03/18", "node": [{"node_id": 0, "place_name": "イタリア_", "place_label": "", "patients": ["8-1", "8-9"], "longitude": 12.56738, "latitude": 41.87194}, {"node_id": 1, "place_name": "ひたちなか市_8-1自宅", "place_label": "8-1自宅", "patients": ["8-1"], "longitude": 140.5347934, "latitude": 36.39665060000001}, {"node_id": 2, "place_name": "茨城県ひたちなか市_日立製作所水戸事業所", "place_label": "日立製作所水戸事業所", "patients": ["8-1"], "longitude": 140.5347934, "latitude": 36.39665060000001}, {"node_id": 3, "place_name": "スペイン_", "place_label": "", "patients": ["8-2"], "longitude": -3.74922, "latitude": 40.46366700000001}, {"node_id": 4, "place_name": "つくば市_8-2自宅", "place_label": "8-2自宅", "patients": ["8-2"], "longitude": 140.0764454, "latitude": 36.0835255}, {"node_id": 5, "place_name": "フランス_", "place_label": "", "patients": ["8-2"], "longitude": 2.213749, "latitude": 46.227638}, {"node_id": 6, "place_name": "ベルギー_", "place_label": "", "patients": ["8-2"], "longitude": 4.469936, "latitude": 50.503887}], "edge": []}, {"date": "2020/03/19", "node": [{"node_id": 0, "place_name": "イタリア_", "place_label": "", "patients": ["8-1", "8-9"], "longitude": 12.56738, "latitude": 41.87194}, {"node_id": 1, "place_name": "ひたちなか市_8-1自宅", "place_label": "8-1自宅", "patients": ["8-1"], "longitude": 140.5347934, "latitude": 36.39665060000001}, {"node_id": 2, "place_name": "茨城県ひたちなか市_日立製作所水戸事業所", "place_label": "日立製作所水戸事業所", "patients": ["8-1"], "longitude": 140.5347934, "latitude": 36.39665060000001}, {"node_id": 3, "place_name": "スペイン_", "place_label": "", "patients": ["8-2"], "longitude": -3.74922, "latitude": 40.46366700000001}, {"node_id": 4, "place_name": "つくば市_8-2自宅", "place_label": "8-2自宅", "patients": ["8-2"], "longitude": 140.0764454, "latitude": 36.0835255}, {"node_id": 5, "place_name": "フランス_", "place_label": "", "patients": ["8-2"], "longitude": 2.213749, "latitude": 46.227638}, {"node_id": 6, "place_name": "ベルギー_", "place_label": "", "patients": ["8-2"], "longitude": 4.469936, "latitude": 50.503887}, {"node_id": 7, "place_name": "タイ_", "place_label": "", "patients": ["8-3"], "longitude": 100.992541, "latitude": 15.870032}, {"node_id": 8, "place_name": "茨城県南地域_8-3自宅", "place_label": "8-3自宅", "patients": ["8-3"], "longitude": 140.0252968, "latitude": 35.9173937}], "edge": []}, {"date": "2020/03/23", "node": [{"node_id": 0, "place_name": "イタリア_", "place_label": "", "patients": ["8-1", "8-9"], "longitude": 12.56738, "latitude": 41.87194}, {"node_id": 1, "place_name": "ひたちなか市_8-1自宅", "place_label": "8-1自宅", "patients": ["8-1"], "longitude": 140.5347934, "latitude": 36.39665060000001}, {"node_id": 2, "place_name": "茨城県ひたちなか市_日立製作所水戸事業所", "place_label": "日立製作所水戸事業所", "patients": ["8-1"], "longitude": 140.5347934, "latitude": 36.39665060000001}, {"node_id": 3, "place_name": "スペイン_", "place_label": "", "patients": ["8-2"], "longitude": -3.74922, "latitude": 40.46366700000001}, {"node_id": 4, "place_name": "つくば市_8-2自宅", "place_label": "8-2自宅", "patients": ["8-2"], "longitude": 140.0764454, "latitude": 36.0835255}, {"node_id": 5, "place_name": "フランス_", "place_label": "", "patients": ["8-2"], "longitude": 2.213749, "latitude": 46.227638}, {"node_id": 6, "place_name": "ベルギー_", "place_label": "", "patients": ["8-2"], "longitude": 4.469936, "latitude": 50.503887}, {"node_id": 7, "place_name": "タイ_", "place_label": "", "patients": ["8-3"], "longitude": 100.992541, "latitude": 15.870032}, {"node_id": 8, "place_name": "茨城県南地域_8-3自宅", "place_label": "8-3自宅", "patients": ["8-3"], "longitude": 140.0252968, "latitude": 35.9173937}, {"node_id": 9, "place_name": "東京都台東区_永寿総合病院", "place_label": "永寿総合病院", "patients": ["8-4"], "longitude": 139.7796951, "latitude": 35.709707}, {"node_id": 10, "place_name": "土浦_8-4自宅", "place_label": "8-4自宅", "patients": ["8-4"], "longitude": 140.2042457, "latitude": 36.0783182}, {"node_id": 11, "place_name": "つくば市_8-5自宅", "place_label": "8-5自宅", "patients": ["8-5", "8-6", "8-7", "8-8"], "longitude": 140.0764454, "latitude": 36.0835255}], "edge": []}, {"date": "2020/03/24", "node": [{"node_id": 0, "place_name": "イタリア_", "place_label": "", "patients": ["8-1", "8-9"], "longitude": 12.56738, "latitude": 41.87194}, {"node_id": 1, "place_name": "ひたちなか市_8-1自宅", "place_label": "8-1自宅", "patients": ["8-1"], "longitude": 140.5347934, "latitude": 36.39665060000001}, {"node_id": 2, "place_name": "茨城県ひたちなか市_日立製作所水戸事業所", "place_label": "日立製作所水戸事業所", "patients": ["8-1"], "longitude": 140.5347934, "latitude": 36.39665060000001}, {"node_id": 3, "place_name": "スペイン_", "place_label": "", "patients": ["8-2"], "longitude": -3.74922, "latitude": 40.46366700000001}, {"node_id": 4, "place_name": "つくば市_8-2自宅", "place_label": "8-2自宅", "patients": ["8-2"], "longitude": 140.0764454, "latitude": 36.0835255}, {"node_id": 5, "place_name": "フランス_", "place_label": "", "patients": ["8-2"], "longitude": 2.213749, "latitude": 46.227638}, {"node_id": 6, "place_name": "ベルギー_", "place_label": "", "patients": ["8-2"], "longitude": 4.469936, "latitude": 50.503887}, {"node_id": 7, "place_name": "タイ_", "place_label": "", "patients": ["8-3"], "longitude": 100.992541, "latitude": 15.870032}, {"node_id": 8, "place_name": "茨城県南地域_8-3自宅", "place_label": "8-3自宅", "patients": ["8-3"], "longitude": 140.0252968, "latitude": 35.9173937}, {"node_id": 9, "place_name": "東京都台東区_永寿総合病院", "place_label": "永寿総合病院", "patients": ["8-4"], "longitude": 139.7796951, "latitude": 35.709707}, {"node_id": 10, "place_name": "土浦_8-4自宅", "place_label": "8-4自宅", "patients": ["8-4"], "longitude": 140.2042457, "latitude": 36.0783182}, {"node_id": 11, "place_name": "つくば市_8-5自宅", "place_label": "8-5自宅", "patients": ["8-5", "8-6", "8-7", "8-8"], "longitude": 140.0764454, "latitude": 36.0835255}, {"node_id": 12, "place_name": "牛久市_8-10自宅", "place_label": "8-10自宅", "patients": ["8-10"], "longitude": 140.14955, "latitude": 35.97939640000001}, {"node_id": 13, "place_name": "桜川市_8-8自宅", "place_label": "8-8自宅", "patients": ["8-8"], "longitude": 140.0905418, "latitude": 36.3272852}, {"node_id": 14, "place_name": "つくば市_8-9自宅", "place_label": "8-9自宅", "patients": ["8-9"], "longitude": 140.0764454, "latitude": 36.0835255}, {"node_id": 15, "place_name": "つくば市_ダンス教室", "place_label": "ダンス教室", "patients": ["8-9", "8-11"], "longitude": 140.0764454, "latitude": 36.0835255}], "edge": []}, {"date": "2020/03/27", "node": [{"node_id": 0, "place_name": "イタリア_", "place_label": "", "patients": ["8-1", "8-9"], "longitude": 12.56738, "latitude": 41.87194}, {"node_id": 1, "place_name": "ひたちなか市_8-1自宅", "place_label": "8-1自宅", "patients": ["8-1"], "longitude": 140.5347934, "latitude": 36.39665060000001}, {"node_id": 2, "place_name": "茨城県ひたちなか市_日立製作所水戸事業所", "place_label": "日立製作所水戸事業所", "patients": ["8-1"], "longitude": 140.5347934, "latitude": 36.39665060000001}, {"node_id": 3, "place_name": "スペイン_", "place_label": "", "patients": ["8-2"], "longitude": -3.74922, "latitude": 40.46366700000001}, {"node_id": 4, "place_name": "つくば市_8-2自宅", "place_label": "8-2自宅", "patients": ["8-2"], "longitude": 140.0764454, "latitude": 36.0835255}, {"node_id": 5, "place_name": "フランス_", "place_label": "", "patients": ["8-2"], "longitude": 2.213749, "latitude": 46.227638}, {"node_id": 6, "place_name": "ベルギー_", "place_label": "", "patients": ["8-2"], "longitude": 4.469936, "latitude": 50.503887}, {"node_id": 7, "place_name": "タイ_", "place_label": "", "patients": ["8-3"], "longitude": 100.992541, "latitude": 15.870032}, {"node_id": 8, "place_name": "茨城県南地域_8-3自宅", "place_label": "8-3自宅", "patients": ["8-3"], "longitude": 140.0252968, "latitude": 35.9173937}, {"node_id": 9, "place_name": "東京都台東区_永寿総合病院", "place_label": "永寿総合病院", "patients": ["8-4"], "longitude": 139.7796951, "latitude": 35.709707}, {"node_id": 10, "place_name": "土浦_8-4自宅", "place_label": "8-4自宅", "patients": ["8-4"], "longitude": 140.2042457, "latitude": 36.0783182}, {"node_id": 11, "place_name": "つくば市_8-5自宅", "place_label": "8-5自宅", "patients": ["8-5", "8-6", "8-7", "8-8"], "longitude": 140.0764454, "latitude": 36.0835255}, {"node_id": 12, "place_name": "牛久市_8-10自宅", "place_label": "8-10自宅", "patients": ["8-10"], "longitude": 140.14955, "latitude": 35.97939640000001}, {"node_id": 13, "place_name": "桜川市_8-8自宅", "place_label": "8-8自宅", "patients": ["8-8"], "longitude": 140.0905418, "latitude": 36.3272852}, {"node_id": 14, "place_name": "つくば市_8-9自宅", "place_label": "8-9自宅", "patients": ["8-9"], "longitude": 140.0764454, "latitude": 36.0835255}, {"node_id": 15, "place_name": "つくば市_ダンス教室", "place_label": "ダンス教室", "patients": ["8-9", "8-11"], "longitude": 140.0764454, "latitude": 36.0835255}, {"node_id": 16, "place_name": "つくば市_8-11自宅", "place_label": "8-11自宅", "patients": ["8-11"], "longitude": 140.0764454, "latitude": 36.0835255}, {"node_id": 17, "place_name": "取手市_JAとりで総合医療センター", "place_label": "JAとりで総合医療センター", "patients": ["8-12", "8-13", "8-15", "8-18", "8-19", "8-20", "8-38", "8-39", "8-40"], "longitude": 140.068748, "latitude": 35.911038}, {"node_id": 18, "place_name": "つくばみらい市_8-12自宅", "place_label": "8-12自宅", "patients": ["8-12", "8-14"], "longitude": 140.0363852, "latitude": 35.9632377}], "edge": []}, {"date": "2020/03/28", "node": [{"node_id": 0, "place_name": "イタリア_", "place_label": "", "patients": ["8-1", "8-9"], "longitude": 12.56738, "latitude": 41.87194}, {"node_id": 1, "place_name": "ひたちなか市_8-1自宅", "place_label": "8-1自宅", "patients": ["8-1"], "longitude": 140.5347934, "latitude": 36.39665060000001}, {"node_id": 2, "place_name": "茨城県ひたちなか市_日立製作所水戸事業所", "place_label": "日立製作所水戸事業所", "patients": ["8-1"], "longitude": 140.5347934, "latitude": 36.39665060000001}, {"node_id": 3, "place_name": "スペイン_", "place_label": "", "patients": ["8-2"], "longitude": -3.74922, "latitude": 40.46366700000001}, {"node_id": 4, "place_name": "つくば市_8-2自宅", "place_label": "8-2自宅", "patients": ["8-2"], "longitude": 140.0764454, "latitude": 36.0835255}, {"node_id": 5, "place_name": "フランス_", "place_label": "", "patients": ["8-2"], "longitude": 2.213749, "latitude": 46.227638}, {"node_id": 6, "place_name": "ベルギー_", "place_label": "", "patients": ["8-2"], "longitude": 4.469936, "latitude": 50.503887}, {"node_id": 7, "place_name": "タイ_", "place_label": "", "patients": ["8-3"], "longitude": 100.992541, "latitude": 15.870032}, {"node_id": 8, "place_name": "茨城県南地域_8-3自宅", "place_label": "8-3自宅", "patients": ["8-3"], "longitude": 140.0252968, "latitude": 35.9173937}, {"node_id": 9, "place_name": "東京都台東区_永寿総合病院", "place_label": "永寿総合病院", "patients": ["8-4"], "longitude": 139.7796951, "latitude": 35.709707}, {"node_id": 10, "place_name": "土浦_8-4自宅", "place_label": "8-4自宅", "patients": ["8-4"], "longitude": 140.2042457, "latitude": 36.0783182}, {"node_id": 11, "place_name": "つくば市_8-5自宅", "place_label": "8-5自宅", "patients": ["8-5", "8-6", "8-7", "8-8"], "longitude": 140.0764454, "latitude": 36.0835255}, {"node_id": 12, "place_name": "牛久市_8-10自宅", "place_label": "8-10自宅", "patients": ["8-10"], "longitude": 140.14955, "latitude": 35.97939640000001}, {"node_id": 13, "place_name": "桜川市_8-8自宅", "place_label": "8-8自宅", "patients": ["8-8"], "longitude": 140.0905418, "latitude": 36.3272852}, {"node_id": 14, "place_name": "つくば市_8-9自宅", "place_label": "8-9自宅", "patients": ["8-9"], "longitude": 140.0764454, "latitude": 36.0835255}, {"node_id": 15, "place_name": "つくば市_ダンス教室", "place_label": "ダンス教室", "patients": ["8-9", "8-11"], "longitude": 140.0764454, "latitude": 36.0835255}, {"node_id": 16, "place_name": "つくば市_8-11自宅", "place_label": "8-11自宅", "patients": ["8-11"], "longitude": 140.0764454, "latitude": 36.0835255}, {"node_id": 17, "place_name": "取手市_JAとりで総合医療センター", "place_label": "JAとりで総合医療センター", "patients": ["8-12", "8-13", "8-15", "8-18", "8-19", "8-20", "8-38", "8-39", "8-40"], "longitude": 140.068748, "latitude": 35.911038}, {"node_id": 18, "place_name": "つくばみらい市_8-12自宅", "place_label": "8-12自宅", "patients": ["8-12", "8-14"], "longitude": 140.0363852, "latitude": 35.9632377}, {"node_id": 19, "place_name": "千葉県香取郡_北総育成園", "place_label": "北総育成園", "patients": ["12-X-1", "12-X-2"], "longitude": 140.650455, "latitude": 35.82819}, {"node_id": 20, "place_name": "つくば市_アレーテル・つくば", "place_label": "アレーテル・つくば", "patients": ["8-16", "8-17", "8-22", "8-23", "8-24", "8-33", "8-34", "8-35", "8-36", "8-37"], "longitude": 140.0975996, "latitude": 36.1801402}], "edge": [[17, 18]]}, {"date": "2020/03/30", "node": [{"node_id": 0, "place_name": "イタリア_", "place_label": "", "patients": ["8-1", "8-9"], "longitude": 12.56738, "latitude": 41.87194}, {"node_id": 1, "place_name": "ひたちなか市_8-1自宅", "place_label": "8-1自宅", "patients": ["8-1"], "longitude": 140.5347934, "latitude": 36.39665060000001}, {"node_id": 2, "place_name": "茨城県ひたちなか市_日立製作所水戸事業所", "place_label": "日立製作所水戸事業所", "patients": ["8-1"], "longitude": 140.5347934, "latitude": 36.39665060000001}, {"node_id": 3, "place_name": "スペイン_", "place_label": "", "patients": ["8-2"], "longitude": -3.74922, "latitude": 40.46366700000001}, {"node_id": 4, "place_name": "つくば市_8-2自宅", "place_label": "8-2自宅", "patients": ["8-2"], "longitude": 140.0764454, "latitude": 36.0835255}, {"node_id": 5, "place_name": "フランス_", "place_label": "", "patients": ["8-2"], "longitude": 2.213749, "latitude": 46.227638}, {"node_id": 6, "place_name": "ベルギー_", "place_label": "", "patients": ["8-2"], "longitude": 4.469936, "latitude": 50.503887}, {"node_id": 7, "place_name": "タイ_", "place_label": "", "patients": ["8-3"], "longitude": 100.992541, "latitude": 15.870032}, {"node_id": 8, "place_name": "茨城県南地域_8-3自宅", "place_label": "8-3自宅", "patients": ["8-3"], "longitude": 140.0252968, "latitude": 35.9173937}, {"node_id": 9, "place_name": "東京都台東区_永寿総合病院", "place_label": "永寿総合病院", "patients": ["8-4"], "longitude": 139.7796951, "latitude": 35.709707}, {"node_id": 10, "place_name": "土浦_8-4自宅", "place_label": "8-4自宅", "patients": ["8-4"], "longitude": 140.2042457, "latitude": 36.0783182}, {"node_id": 11, "place_name": "つくば市_8-5自宅", "place_label": "8-5自宅", "patients": ["8-5", "8-6", "8-7", "8-8"], "longitude": 140.0764454, "latitude": 36.0835255}, {"node_id": 12, "place_name": "牛久市_8-10自宅", "place_label": "8-10自宅", "patients": ["8-10"], "longitude": 140.14955, "latitude": 35.97939640000001}, {"node_id": 13, "place_name": "桜川市_8-8自宅", "place_label": "8-8自宅", "patients": ["8-8"], "longitude": 140.0905418, "latitude": 36.3272852}, {"node_id": 14, "place_name": "つくば市_8-9自宅", "place_label": "8-9自宅", "patients": ["8-9"], "longitude": 140.0764454, "latitude": 36.0835255}, {"node_id": 15, "place_name": "つくば市_ダンス教室", "place_label": "ダンス教室", "patients": ["8-9", "8-11"], "longitude": 140.0764454, "latitude": 36.0835255}, {"node_id": 16, "place_name": "つくば市_8-11自宅", "place_label": "8-11自宅", "patients": ["8-11"], "longitude": 140.0764454, "latitude": 36.0835255}, {"node_id": 17, "place_name": "取手市_JAとりで総合医療センター", "place_label": "JAとりで総合医療センター", "patients": ["8-12", "8-13", "8-15", "8-18", "8-19", "8-20", "8-38", "8-39", "8-40"], "longitude": 140.068748, "latitude": 35.911038}, {"node_id": 18, "place_name": "つくばみらい市_8-12自宅", "place_label": "8-12自宅", "patients": ["8-12", "8-14"], "longitude": 140.0363852, "latitude": 35.9632377}, {"node_id": 19, "place_name": "千葉県香取郡_北総育成園", "place_label": "北総育成園", "patients": ["12-X-1", "12-X-2"], "longitude": 140.650455, "latitude": 35.82819}, {"node_id": 20, "place_name": "つくば市_アレーテル・つくば", "place_label": "アレーテル・つくば", "patients": ["8-16", "8-17", "8-22", "8-23", "8-24", "8-33", "8-34", "8-35", "8-36", "8-37"], "longitude": 140.0975996, "latitude": 36.1801402}], "edge": [[17, 18]]}, {"date": "2020/03/31", "node": [{"node_id": 0, "place_name": "イタリア_", "place_label": "", "patients": ["8-1", "8-9"], "longitude": 12.56738, "latitude": 41.87194}, {"node_id": 1, "place_name": "ひたちなか市_8-1自宅", "place_label": "8-1自宅", "patients": ["8-1"], "longitude": 140.5347934, "latitude": 36.39665060000001}, {"node_id": 2, "place_name": "茨城県ひたちなか市_日立製作所水戸事業所", "place_label": "日立製作所水戸事業所", "patients": ["8-1"], "longitude": 140.5347934, "latitude": 36.39665060000001}, {"node_id": 3, "place_name": "スペイン_", "place_label": "", "patients": ["8-2"], "longitude": -3.74922, "latitude": 40.46366700000001}, {"node_id": 4, "place_name": "つくば市_8-2自宅", "place_label": "8-2自宅", "patients": ["8-2"], "longitude": 140.0764454, "latitude": 36.0835255}, {"node_id": 5, "place_name": "フランス_", "place_label": "", "patients": ["8-2"], "longitude": 2.213749, "latitude": 46.227638}, {"node_id": 6, "place_name": "ベルギー_", "place_label": "", "patients": ["8-2"], "longitude": 4.469936, "latitude": 50.503887}, {"node_id": 7, "place_name": "タイ_", "place_label": "", "patients": ["8-3"], "longitude": 100.992541, "latitude": 15.870032}, {"node_id": 8, "place_name": "茨城県南地域_8-3自宅", "place_label": "8-3自宅", "patients": ["8-3"], "longitude": 140.0252968, "latitude": 35.9173937}, {"node_id": 9, "place_name": "東京都台東区_永寿総合病院", "place_label": "永寿総合病院", "patients": ["8-4"], "longitude": 139.7796951, "latitude": 35.709707}, {"node_id": 10, "place_name": "土浦_8-4自宅", "place_label": "8-4自宅", "patients": ["8-4"], "longitude": 140.2042457, "latitude": 36.0783182}, {"node_id": 11, "place_name": "つくば市_8-5自宅", "place_label": "8-5自宅", "patients": ["8-5", "8-6", "8-7", "8-8"], "longitude": 140.0764454, "latitude": 36.0835255}, {"node_id": 12, "place_name": "牛久市_8-10自宅", "place_label": "8-10自宅", "patients": ["8-10"], "longitude": 140.14955, "latitude": 35.97939640000001}, {"node_id": 13, "place_name": "桜川市_8-8自宅", "place_label": "8-8自宅", "patients": ["8-8"], "longitude": 140.0905418, "latitude": 36.3272852}, {"node_id": 14, "place_name": "つくば市_8-9自宅", "place_label": "8-9自宅", "patients": ["8-9"], "longitude": 140.0764454, "latitude": 36.0835255}, {"node_id": 15, "place_name": "つくば市_ダンス教室", "place_label": "ダンス教室", "patients": ["8-9", "8-11"], "longitude": 140.0764454, "latitude": 36.0835255}, {"node_id": 16, "place_name": "つくば市_8-11自宅", "place_label": "8-11自宅", "patients": ["8-11"], "longitude": 140.0764454, "latitude": 36.0835255}, {"node_id": 17, "place_name": "取手市_JAとりで総合医療センター", "place_label": "JAとりで総合医療センター", "patients": ["8-12", "8-13", "8-15", "8-18", "8-19", "8-20", "8-38", "8-39", "8-40"], "longitude": 140.068748, "latitude": 35.911038}, {"node_id": 18, "place_name": "つくばみらい市_8-12自宅", "place_label": "8-12自宅", "patients": ["8-12", "8-14"], "longitude": 140.0363852, "latitude": 35.9632377}, {"node_id": 19, "place_name": "千葉県香取郡_北総育成園", "place_label": "北総育成園", "patients": ["12-X-1", "12-X-2"], "longitude": 140.650455, "latitude": 35.82819}, {"node_id": 20, "place_name": "つくば市_アレーテル・つくば", "place_label": "アレーテル・つくば", "patients": ["8-16", "8-17", "8-22", "8-23", "8-24", "8-33", "8-34", "8-35", "8-36", "8-37"], "longitude": 140.0975996, "latitude": 36.1801402}, {"node_id": 21, "place_name": "古河市_8-21自宅", "place_label": "8-21自宅", "patients": ["8-21", "8-41"], "longitude": 139.7557348, "latitude": 36.1787948}], "edge": [[17, 18]]}, {"date": "2020/04/01", "node": [{"node_id": 0, "place_name": "イタリア_", "place_label": "", "patients": ["8-1", "8-9"], "longitude": 12.56738, "latitude": 41.87194}, {"node_id": 1, "place_name": "ひたちなか市_8-1自宅", "place_label": "8-1自宅", "patients": ["8-1"], "longitude": 140.5347934, "latitude": 36.39665060000001}, {"node_id": 2, "place_name": "茨城県ひたちなか市_日立製作所水戸事業所", "place_label": "日立製作所水戸事業所", "patients": ["8-1"], "longitude": 140.5347934, "latitude": 36.39665060000001}, {"node_id": 3, "place_name": "スペイン_", "place_label": "", "patients": ["8-2"], "longitude": -3.74922, "latitude": 40.46366700000001}, {"node_id": 4, "place_name": "つくば市_8-2自宅", "place_label": "8-2自宅", "patients": ["8-2"], "longitude": 140.0764454, "latitude": 36.0835255}, {"node_id": 5, "place_name": "フランス_", "place_label": "", "patients": ["8-2"], "longitude": 2.213749, "latitude": 46.227638}, {"node_id": 6, "place_name": "ベルギー_", "place_label": "", "patients": ["8-2"], "longitude": 4.469936, "latitude": 50.503887}, {"node_id": 7, "place_name": "タイ_", "place_label": "", "patients": ["8-3"], "longitude": 100.992541, "latitude": 15.870032}, {"node_id": 8, "place_name": "茨城県南地域_8-3自宅", "place_label": "8-3自宅", "patients": ["8-3"], "longitude": 140.0252968, "latitude": 35.9173937}, {"node_id": 9, "place_name": "東京都台東区_永寿総合病院", "place_label": "永寿総合病院", "patients": ["8-4"], "longitude": 139.7796951, "latitude": 35.709707}, {"node_id": 10, "place_name": "土浦_8-4自宅", "place_label": "8-4自宅", "patients": ["8-4"], "longitude": 140.2042457, "latitude": 36.0783182}, {"node_id": 11, "place_name": "つくば市_8-5自宅", "place_label": "8-5自宅", "patients": ["8-5", "8-6", "8-7", "8-8"], "longitude": 140.0764454, "latitude": 36.0835255}, {"node_id": 12, "place_name": "牛久市_8-10自宅", "place_label": "8-10自宅", "patients": ["8-10"], "longitude": 140.14955, "latitude": 35.97939640000001}, {"node_id": 13, "place_name": "桜川市_8-8自宅", "place_label": "8-8自宅", "patients": ["8-8"], "longitude": 140.0905418, "latitude": 36.3272852}, {"node_id": 14, "place_name": "つくば市_8-9自宅", "place_label": "8-9自宅", "patients": ["8-9"], "longitude": 140.0764454, "latitude": 36.0835255}, {"node_id": 15, "place_name": "つくば市_ダンス教室", "place_label": "ダンス教室", "patients": ["8-9", "8-11"], "longitude": 140.0764454, "latitude": 36.0835255}, {"node_id": 16, "place_name": "つくば市_8-11自宅", "place_label": "8-11自宅", "patients": ["8-11"], "longitude": 140.0764454, "latitude": 36.0835255}, {"node_id": 17, "place_name": "取手市_JAとりで総合医療センター", "place_label": "JAとりで総合医療センター", "patients": ["8-12", "8-13", "8-15", "8-18", "8-19", "8-20", "8-38", "8-39", "8-40"], "longitude": 140.068748, "latitude": 35.911038}, {"node_id": 18, "place_name": "つくばみらい市_8-12自宅", "place_label": "8-12自宅", "patients": ["8-12", "8-14"], "longitude": 140.0363852, "latitude": 35.9632377}, {"node_id": 19, "place_name": "千葉県香取郡_北総育成園", "place_label": "北総育成園", "patients": ["12-X-1", "12-X-2"], "longitude": 140.650455, "latitude": 35.82819}, {"node_id": 20, "place_name": "つくば市_アレーテル・つくば", "place_label": "アレーテル・つくば", "patients": ["8-16", "8-17", "8-22", "8-23", "8-24", "8-33", "8-34", "8-35", "8-36", "8-37"], "longitude": 140.0975996, "latitude": 36.1801402}, {"node_id": 21, "place_name": "古河市_8-21自宅", "place_label": "8-21自宅", "patients": ["8-21", "8-41"], "longitude": 139.7557348, "latitude": 36.1787948}, {"node_id": 22, "place_name": "神栖市_12-X-1自宅", "place_label": "12-X-1自宅", "patients": ["12-X-1", "8-25"], "longitude": 140.6647405, "latitude": 35.8898314}, {"node_id": 23, "place_name": "神栖市_しあわせ会ハミングハウス", "place_label": "しあわせ会ハミングハウス", "patients": ["12-X-2", "8-26", "8-27", "8-28", "8-29", "8-30", "8-31", "8-32"], "longitude": 140.762848, "latitude": 35.823395}, {"node_id": 24, "place_name": "神栖市_8-30自宅", "place_label": "8-30自宅", "patients": ["8-30"], "longitude": 140.6647405, "latitude": 35.8898314}, {"node_id": 25, "place_name": "神栖市_8-31自宅", "place_label": "8-31自宅", "patients": ["8-31"], "longitude": 140.6647405, "latitude": 35.8898314}, {"node_id": 26, "place_name": "神栖市_8-32自宅", "place_label": "8-32自宅", "patients": ["8-32"], "longitude": 140.6647405, "latitude": 35.8898314}, {"node_id": 27, "place_name": "牛久市_8-38自宅", "place_label": "8-38自宅", "patients": ["8-38"], "longitude": 140.14955, "latitude": 35.97939640000001}, {"node_id": 28, "place_name": "茨城県外_8-39自宅", "place_label": "8-39自宅", "patients": ["8-39"], "longitude": 140.1832516, "latitude": 36.2193571}, {"node_id": 29, "place_name": "つくばみらい市_8-40自宅", "place_label": "8-40自宅", "patients": ["8-40"], "longitude": 140.0363852, "latitude": 35.9632377}, {"node_id": 30, "place_name": "筑西市_8-42自宅", "place_label": "8-42自宅", "patients": ["8-42"], "longitude": 139.9794265, "latitude": 36.3052343}], "edge": [[17, 18], [19, 22], [19, 23]]}, {"date": "2020/04/02", "node": [{"node_id": 0, "place_name": "イタリア_", "place_label": "", "patients": ["8-1", "8-9"], "longitude": 12.56738, "latitude": 41.87194}, {"node_id": 1, "place_name": "ひたちなか市_8-1自宅", "place_label": "8-1自宅", "patients": ["8-1"], "longitude": 140.5347934, "latitude": 36.39665060000001}, {"node_id": 2, "place_name": "茨城県ひたちなか市_日立製作所水戸事業所", "place_label": "日立製作所水戸事業所", "patients": ["8-1"], "longitude": 140.5347934, "latitude": 36.39665060000001}, {"node_id": 3, "place_name": "スペイン_", "place_label": "", "patients": ["8-2"], "longitude": -3.74922, "latitude": 40.46366700000001}, {"node_id": 4, "place_name": "つくば市_8-2自宅", "place_label": "8-2自宅", "patients": ["8-2"], "longitude": 140.0764454, "latitude": 36.0835255}, {"node_id": 5, "place_name": "フランス_", "place_label": "", "patients": ["8-2"], "longitude": 2.213749, "latitude": 46.227638}, {"node_id": 6, "place_name": "ベルギー_", "place_label": "", "patients": ["8-2"], "longitude": 4.469936, "latitude": 50.503887}, {"node_id": 7, "place_name": "タイ_", "place_label": "", "patients": ["8-3"], "longitude": 100.992541, "latitude": 15.870032}, {"node_id": 8, "place_name": "茨城県南地域_8-3自宅", "place_label": "8-3自宅", "patients": ["8-3"], "longitude": 140.0252968, "latitude": 35.9173937}, {"node_id": 9, "place_name": "東京都台東区_永寿総合病院", "place_label": "永寿総合病院", "patients": ["8-4"], "longitude": 139.7796951, "latitude": 35.709707}, {"node_id": 10, "place_name": "土浦_8-4自宅", "place_label": "8-4自宅", "patients": ["8-4"], "longitude": 140.2042457, "latitude": 36.0783182}, {"node_id": 11, "place_name": "つくば市_8-5自宅", "place_label": "8-5自宅", "patients": ["8-5", "8-6", "8-7", "8-8"], "longitude": 140.0764454, "latitude": 36.0835255}, {"node_id": 12, "place_name": "牛久市_8-10自宅", "place_label": "8-10自宅", "patients": ["8-10"], "longitude": 140.14955, "latitude": 35.97939640000001}, {"node_id": 13, "place_name": "桜川市_8-8自宅", "place_label": "8-8自宅", "patients": ["8-8"], "longitude": 140.0905418, "latitude": 36.3272852}, {"node_id": 14, "place_name": "つくば市_8-9自宅", "place_label": "8-9自宅", "patients": ["8-9"], "longitude": 140.0764454, "latitude": 36.0835255}, {"node_id": 15, "place_name": "つくば市_ダンス教室", "place_label": "ダンス教室", "patients": ["8-9", "8-11"], "longitude": 140.0764454, "latitude": 36.0835255}, {"node_id": 16, "place_name": "つくば市_8-11自宅", "place_label": "8-11自宅", "patients": ["8-11"], "longitude": 140.0764454, "latitude": 36.0835255}, {"node_id": 17, "place_name": "取手市_JAとりで総合医療センター", "place_label": "JAとりで総合医療センター", "patients": ["8-12", "8-13", "8-15", "8-18", "8-19", "8-20", "8-38", "8-39", "8-40"], "longitude": 140.068748, "latitude": 35.911038}, {"node_id": 18, "place_name": "つくばみらい市_8-12自宅", "place_label": "8-12自宅", "patients": ["8-12", "8-14"], "longitude": 140.0363852, "latitude": 35.9632377}, {"node_id": 19, "place_name": "千葉県香取郡_北総育成園", "place_label": "北総育成園", "patients": ["12-X-1", "12-X-2"], "longitude": 140.650455, "latitude": 35.82819}, {"node_id": 20, "place_name": "つくば市_アレーテル・つくば", "place_label": "アレーテル・つくば", "patients": ["8-16", "8-17", "8-22", "8-23", "8-24", "8-33", "8-34", "8-35", "8-36", "8-37"], "longitude": 140.0975996, "latitude": 36.1801402}, {"node_id": 21, "place_name": "古河市_8-21自宅", "place_label": "8-21自宅", "patients": ["8-21", "8-41"], "longitude": 139.7557348, "latitude": 36.1787948}, {"node_id": 22, "place_name": "神栖市_12-X-1自宅", "place_label": "12-X-1自宅", "patients": ["12-X-1", "8-25"], "longitude": 140.6647405, "latitude": 35.8898314}, {"node_id": 23, "place_name": "神栖市_しあわせ会ハミングハウス", "place_label": "しあわせ会ハミングハウス", "patients": ["12-X-2", "8-26", "8-27", "8-28", "8-29", "8-30", "8-31", "8-32"], "longitude": 140.762848, "latitude": 35.823395}, {"node_id": 24, "place_name": "神栖市_8-30自宅", "place_label": "8-30自宅", "patients": ["8-30"], "longitude": 140.6647405, "latitude": 35.8898314}, {"node_id": 25, "place_name": "神栖市_8-31自宅", "place_label": "8-31自宅", "patients": ["8-31"], "longitude": 140.6647405, "latitude": 35.8898314}, {"node_id": 26, "place_name": "神栖市_8-32自宅", "place_label": "8-32自宅", "patients": ["8-32"], "longitude": 140.6647405, "latitude": 35.8898314}, {"node_id": 27, "place_name": "牛久市_8-38自宅", "place_label": "8-38自宅", "patients": ["8-38"], "longitude": 140.14955, "latitude": 35.97939640000001}, {"node_id": 28, "place_name": "茨城県外_8-39自宅", "place_label": "8-39自宅", "patients": ["8-39"], "longitude": 140.1832516, "latitude": 36.2193571}, {"node_id": 29, "place_name": "つくばみらい市_8-40自宅", "place_label": "8-40自宅", "patients": ["8-40"], "longitude": 140.0363852, "latitude": 35.9632377}, {"node_id": 30, "place_name": "筑西市_8-42自宅", "place_label": "8-42自宅", "patients": ["8-42"], "longitude": 139.9794265, "latitude": 36.3052343}, {"node_id": 31, "place_name": "水戸市_8-43自宅", "place_label": "8-43自宅", "patients": ["8-43"], "longitude": 140.4713723, "latitude": 36.3658764}, {"node_id": 32, "place_name": "水戸市_8-44実家", "place_label": "8-44実家", "patients": ["8-44"], "longitude": 140.4713723, "latitude": 36.3658764}, {"node_id": 33, "place_name": "東京都内_8-44自宅", "place_label": "8-44自宅", "patients": ["8-44"], "longitude": 139.7690174, "latitude": 35.6803997}], "edge": [[17, 18], [19, 22], [19, 23]]}]